,City,Cloudiness,Country,Date,Humidity,Lat,Lng,Max Temp,Wind Speed
0,Albany,31,US,1601021058,80,42.6,-73.97,61.0,2.21
1,Dikson,100,RU,1601021059,86,73.51,80.55,44.49,30.36
2,Kapaa,90,US,1601020979,74,22.08,-159.32,80.6,16.11
3,Baní,19,DO,1601021062,82,18.28,-70.33,80.01,3.0
4,Barrow,90,US,1601021063,97,71.29,-156.79,32.0,11.41
5,Aripuanã,5,BR,1601021064,80,-9.17,-60.63,73.71,2.17
6,Reno,1,US,1601020927,58,39.53,-119.81,57.99,6.93
7,Khatanga,81,RU,1601021067,65,71.97,102.5,48.99,8.59
8,Port Hardy,90,CA,1601020805,93,50.7,-127.42,53.6,14.99
9,Atar,12,MR,1601021069,37,20.52,-13.05,87.39,9.66
10,Touros,40,BR,1601021071,94,-5.2,-35.46,71.6,4.7
11,Cape Town,75,ZA,1601021072,67,-33.93,18.42,62.01,24.16
12,Qaanaaq,0,GL,1601021073,79,77.48,-69.36,14.29,7.76
13,Krasnosel'kup,0,RU,1601021074,61,65.7,82.47,46.54,11.34
14,Staryy Nadym,2,RU,1601021076,54,65.61,72.68,48.69,14.88
15,Pacific Grove,0,US,1601021077,92,36.62,-121.92,61.0,5.99
16,Ushuaia,75,AR,1601021047,74,-54.8,-68.3,37.4,33.33
17,Manga,72,BF,1601021080,72,11.66,-1.07,79.2,5.21
18,Moose Factory,75,CA,1601021081,93,51.26,-80.61,35.6,9.17
19,Port Alfred,5,ZA,1601021083,64,-33.59,26.89,68.7,21.56
20,Hermanus,53,ZA,1601021084,57,-34.42,19.23,64.99,11.01
21,Alofi,72,NU,1601021085,88,-19.06,-169.92,73.4,8.05
22,Yar-Sale,100,RU,1601021086,64,66.83,70.83,45.75,17.02
23,Saint-Philippe,7,RE,1601021088,61,-21.36,55.77,78.8,23.04
24,Letnica,100,PL,1601020851,38,51.9,15.33,63.0,9.01
25,Tezu,100,IN,1601021090,87,27.92,96.17,73.18,5.59
26,Nyurba,0,RU,1601021092,46,63.28,118.33,54.46,8.97
27,Visnes,20,NO,1601021093,87,59.36,5.22,48.2,12.75
28,Pryazha,89,RU,1601021094,77,61.69,33.62,59.0,4.47
29,Hithadhoo,65,MV,1601021063,64,-0.6,73.08,82.53,3.71
30,Carnarvon,90,AU,1601021097,56,-24.87,113.63,73.4,9.17
31,Bredasdorp,100,ZA,1601021098,55,-34.53,20.04,60.8,20.8
32,Fortuna,78,US,1601021099,95,40.6,-124.16,57.99,1.74
33,Coyhaique,81,CL,1601021101,75,-45.58,-72.07,41.0,4.7
34,Marsh Harbour,75,BS,1601021102,80,26.54,-77.06,81.63,18.16
35,Sola,100,VU,1601021104,85,-13.88,167.55,80.53,15.61
36,Whitehorse,75,CA,1601020818,75,60.72,-135.05,42.8,2.64
37,Wanning,100,CN,1601021106,70,18.8,110.4,85.89,5.01
38,Kedrovyy,75,RU,1601021107,93,56.17,91.82,44.6,11.18
39,Lagoa,100,PT,1601021109,73,39.05,-27.98,67.24,13.51
40,Butaritari,100,KI,1601021110,74,3.07,172.79,82.09,15.55
41,Klaksvík,46,FO,1601021111,87,62.23,-6.59,42.8,14.99
42,Thompson,90,CA,1601021112,81,55.74,-97.86,50.0,2.24
43,Bluff,77,NZ,1601020866,75,-46.6,168.33,48.99,1.99
44,Pemberton,100,CA,1601021115,68,50.32,-122.8,54.1,5.73
45,Punta Arenas,42,CL,1601021116,79,-53.15,-70.92,42.8,5.82
46,Provideniya,5,RU,1601021118,84,64.38,-173.3,34.12,9.22
47,Mataura,86,NZ,1601021119,75,-46.19,168.86,48.99,1.99
48,Manokwari,37,ID,1601021120,76,-0.87,134.08,83.3,10.33
49,Hilo,90,US,1601021055,78,19.73,-155.09,77.0,5.59
50,Progreso,80,MX,1601021123,94,21.28,-89.67,79.0,6.98
51,Port Lincoln,71,AU,1601021124,62,-34.73,135.87,51.57,19.3
52,Weyburn,1,CA,1601021125,35,49.67,-103.85,58.89,11.54
53,Aloleng,97,PH,1601021127,80,16.13,119.78,84.63,9.98
54,Bhīmavaram,100,IN,1601021128,77,16.53,81.53,87.24,9.91
55,Sitka,90,US,1601021043,87,57.05,-135.33,51.8,5.82
56,Nemuro,75,JP,1601020989,82,43.32,145.57,55.4,11.41
57,Conceição do Araguaia,93,BR,1601021132,65,-8.26,-49.26,79.93,1.77
58,Khani,0,GE,1601021133,45,41.96,42.96,84.2,13.87
59,Jamestown,20,US,1601021135,100,42.1,-79.24,55.0,3.36
60,Vaini,20,TO,1601021136,88,-21.2,-175.2,71.6,5.82
61,São Raimundo das Mangabeiras,46,BR,1601021138,36,-7.02,-45.48,79.7,6.33
62,Buin,0,CL,1601021139,93,-33.73,-70.75,54.0,4.7
63,Lovington,1,US,1601021140,63,32.94,-103.35,66.99,8.05
64,Agüimes,20,ES,1601021141,57,27.91,-15.45,75.2,14.99
65,George Town,20,MY,1601021143,94,5.41,100.34,80.6,11.41
66,Nikolskoye,85,RU,1601021144,67,59.7,30.79,61.0,6.71
67,Suşehri,100,TR,1601021061,27,40.16,38.09,76.75,3.56
68,Tiarei,20,PF,1601021146,83,-17.53,-149.33,77.0,3.36
69,La Santisima Trinidad,26,BO,1601021148,52,-14.83,-64.9,77.85,3.11
70,Sherpur,100,BD,1601021149,74,25.02,90.02,87.8,5.91
71,Novosil',100,RU,1601021150,45,52.97,37.04,65.17,9.78
72,Rikitea,100,PF,1601021151,84,-23.12,-134.97,73.02,12.08
73,New Norfolk,99,AU,1601021153,85,-42.78,147.06,46.99,1.95
74,Ketchikan,90,US,1601021154,93,55.34,-131.65,53.6,12.75
75,Cidreira,100,BR,1601021155,75,-30.18,-50.21,62.74,5.59
76,Piaçabuçu,0,BR,1601021157,82,-10.41,-36.43,72.23,7.27
77,Sørland,90,NO,1601021158,93,67.67,12.69,50.0,12.75
78,Nizhnevartovsk,0,RU,1601021160,53,60.93,76.55,50.0,11.18
79,Celestún,100,MX,1601021161,84,20.87,-90.4,80.26,8.19
80,Grindavik,0,IS,1601021163,74,63.84,-22.43,32.0,4.7
81,Hasaki,75,JP,1601020916,100,35.73,140.83,69.8,9.17
82,Vanavara,0,RU,1601021165,47,60.34,102.28,58.6,11.41
83,Constitución,3,CL,1601021166,87,-35.33,-72.42,48.83,0.94
84,Lebu,1,CL,1601021167,91,-37.62,-73.65,47.8,4.12
85,Naze,75,JP,1601021169,74,28.37,129.48,82.4,12.75
86,Souillac,20,MU,1601021170,57,-20.52,57.52,77.0,11.41
87,Road Town,45,VG,1601021171,95,18.42,-64.62,81.0,8.41
88,Meulaboh,100,ID,1601021173,68,4.14,96.13,84.56,6.44
89,Barra Patuca,100,HN,1601021174,91,15.8,-84.28,78.17,5.59
90,Hobart,75,AU,1601020978,87,-42.88,147.33,48.2,3.89
91,Atuona,13,PF,1601021176,73,-9.8,-139.03,77.63,17.56
92,Puerto Ayora,100,EC,1601020932,88,-0.74,-90.35,68.0,1.01
93,Los Llanos de Aridane,20,ES,1601021179,69,28.66,-17.92,75.2,5.82
94,Waitati,89,NZ,1601021096,80,-45.75,170.57,48.99,3.0
95,Bathsheba,40,BB,1601021181,83,13.22,-59.52,80.6,5.82
96,Rupert,1,US,1601021183,54,42.62,-113.68,57.2,9.17
97,Ancud,0,CL,1601021184,1,-41.87,-73.82,42.01,6.49
98,Rocha,73,UY,1601021186,92,-34.48,-54.33,48.92,3.02
99,Severo-Kuril'sk,52,RU,1601021187,78,50.68,156.12,49.19,14.99
100,Le Passage,100,FR,1601021188,87,44.2,0.6,51.8,10.29
101,Makkah al Mukarramah,0,SA,1601021190,18,21.43,39.83,102.52,8.81
102,Terrace,90,CA,1601021169,100,54.52,-128.6,48.2,4.7
103,Norman Wells,90,CA,1601021075,100,65.28,-126.83,41.0,13.87
104,Ribeira Grande,75,PT,1601021193,68,38.52,-28.7,68.0,9.17
105,Nouadhibou,64,MR,1601021195,83,20.93,-17.03,77.0,9.17
106,Ust-Maya,0,RU,1601021196,42,60.42,134.53,53.78,7.83
107,Upernavik,0,GL,1601021197,83,72.79,-56.15,21.42,16.93
108,Santa Maria,74,BR,1601021199,91,-29.68,-53.81,60.73,5.46
109,Eyl,52,SO,1601021200,43,7.98,49.82,87.71,21.92
110,Faanui,0,PF,1601021201,73,-16.48,-151.75,78.82,12.71
111,Airai,59,TL,1601021203,62,-8.93,125.41,72.7,3.09
112,Rio Grande,100,BR,1601021204,82,-32.03,-52.1,59.79,3.87
113,Areosa,20,PT,1601021206,93,41.72,-8.86,59.0,3.36
114,Port-Gentil,75,GA,1601021189,83,-0.72,8.78,80.6,12.1
115,Longhua,94,CN,1601021208,67,23.61,114.19,80.29,5.03
116,Ust'-Uda,100,RU,1601021210,90,54.17,103.03,52.12,5.99
117,Vila Velha,40,BR,1601021211,94,-20.33,-40.29,68.0,3.36
118,Rāvar,0,IR,1601021212,10,31.27,56.81,86.38,11.88
119,Noyabrsk,8,RU,1601021214,62,63.2,75.45,47.26,8.86
120,Zastron,3,ZA,1601021215,27,-30.3,27.08,73.9,24.32
121,Sidi Ben Nour,20,TN,1601021216,100,35.53,10.92,78.8,4.7
122,Yumen,0,CN,1601021218,14,40.28,97.2,79.36,14.09
123,Araceli,100,PH,1601021219,73,10.55,119.99,84.65,10.2
124,Saint Paul Harbor,100,US,1601021221,82,57.79,-152.41,48.6,4.61
125,Amahai,100,ID,1601021223,83,-3.33,128.92,79.03,2.39
126,Tuktoyaktuk,100,CA,1601021224,94,69.45,-133.04,34.86,18.77
127,Campagna,40,IT,1601021225,83,40.67,15.11,77.0,21.92
128,Ponta do Sol,20,PT,1601021227,78,32.67,-17.1,73.4,9.17
129,Nianzishan,0,CN,1601021228,90,47.52,122.88,55.99,4.65
130,Lompoc,1,US,1601021135,93,34.64,-120.46,60.01,9.53
131,Carutapera,22,BR,1601021231,84,-1.2,-46.02,77.02,7.38
132,Vardø,75,NO,1601021232,87,70.37,31.11,48.2,12.75
133,Saskylakh,0,RU,1601021233,45,71.92,114.08,52.29,16.17
134,Busselton,88,AU,1601021109,55,-33.65,115.33,69.01,5.01
135,Ostrovnoy,100,RU,1601021236,76,68.05,39.51,58.3,26.28
136,East London,20,ZA,1601021165,68,-33.02,27.91,71.6,20.8
137,La Palma,40,US,1601021239,82,33.85,-118.05,69.01,3.76
138,Kaitangata,68,NZ,1601021240,80,-46.28,169.85,46.99,1.99
139,Diamantino,10,BR,1601021241,48,-14.41,-56.45,78.69,3.56
140,Khanbari,100,NP,1601021243,80,27.37,87.2,70.95,3.62
141,Tiksi,31,RU,1601021244,60,71.69,128.87,47.3,9.55
142,Tønder,100,DK,1601021245,76,54.93,8.87,57.2,16.11
143,Esperance,69,AU,1601021247,48,-33.87,121.9,64.4,11.41
144,Prigrevica,95,RS,1601021248,49,45.68,19.09,73.4,14.99
145,Arraial do Cabo,0,BR,1601021249,92,-22.97,-42.03,70.27,12.95
146,Malaia,86,RO,1601021251,64,45.35,24.03,68.0,6.93
147,Wasilla,90,US,1601021252,93,61.58,-149.44,48.2,0.76
148,Tefé,100,BR,1601021253,97,-3.35,-64.71,73.36,1.77
149,Faisalabad,0,PK,1601021254,8,31.42,73.08,105.57,8.57
150,Kiruna,90,SE,1601021256,100,67.86,20.23,35.6,15.19
151,Guerrero Negro,0,MX,1601021257,75,27.98,-114.06,71.83,10.07
152,Chokurdakh,0,RU,1601021258,70,70.63,147.92,42.12,7.99
153,Mar del Plata,90,AR,1601021260,100,-38.0,-57.56,48.0,4.7
154,Cairns,40,AU,1601021143,69,-16.92,145.77,79.0,6.93
155,Yulara,0,AU,1601021262,12,-25.24,130.99,80.6,6.93
156,Uribia,100,CO,1601021263,74,11.71,-72.27,83.19,11.12
157,Leningradskiy,100,RU,1601021265,97,69.38,178.42,29.89,7.11
158,Arrondissement de Narbonne,62,FR,1601021266,69,43.08,2.83,59.0,15.01
159,Acapulco de Juárez,62,MX,1601021267,80,16.86,-99.89,78.64,4.34
160,Port Elizabeth,20,ZA,1601021269,77,-33.92,25.57,64.4,26.4
161,Peniche,71,PT,1601021270,72,39.36,-9.38,64.99,8.01
162,Hobe Sound,1,US,1601021271,83,27.06,-80.14,82.0,9.75
163,Port Moresby,75,PG,1601021272,83,-9.44,147.18,80.6,11.41
164,Río Gallegos,55,AR,1601021274,65,-51.62,-69.22,44.6,16.11
165,Mchinji,9,MW,1601021275,22,-13.8,32.88,82.42,7.7
166,Zeya,6,RU,1601021276,79,53.75,127.27,54.39,0.74
167,Puerto Escondido,99,MX,1601021146,77,15.85,-97.07,78.93,3.91
168,General Roca,0,AR,1601021279,56,-39.03,-67.58,44.6,3.36
169,Tura,98,IN,1601021280,94,25.52,90.22,79.34,4.59
170,San Patricio,42,MX,1601021282,88,19.22,-104.7,79.48,4.76
171,Chui,92,UY,1601021283,90,-33.7,-53.46,51.39,2.48
172,Panjāb,0,AF,1601021284,16,34.39,67.02,68.72,6.91
173,Bethel,1,US,1601021286,93,41.37,-73.41,57.99,2.62
174,Urussanga,95,BR,1601021287,69,-28.52,-49.32,60.78,2.75
175,Kupang,20,ID,1601021288,50,-10.17,123.58,95.0,13.87
176,Plouzané,20,FR,1601021289,62,48.38,-4.62,53.6,20.8
177,Rome,1,US,1601021291,87,43.21,-75.46,57.2,3.36
178,Santa Isabel Rio Negro,93,BR,1601021292,94,-0.41,-65.02,72.55,1.63
179,Kloulklubed,75,PW,1601021293,66,7.04,134.26,87.8,5.82
180,Dehlorān,0,IR,1601021294,8,32.69,47.27,101.43,6.62
181,Gadwāl,99,IN,1601021296,68,16.23,77.8,86.9,11.34
182,Anadyr,40,RU,1601021297,92,64.75,177.48,30.2,4.47
183,Camacha,40,PT,1601021298,83,33.08,-16.33,73.4,10.29
184,Magelang,66,ID,1601021299,52,-7.47,110.22,88.0,8.46
185,Gamba,45,GA,1601021301,74,-2.65,10.0,77.81,7.76
186,Pisco,0,PE,1601021302,87,-13.7,-76.22,57.99,4.7
187,Hong Kong,100,HK,1601021120,76,22.29,114.16,86.0,3.0
188,Cabo San Lucas,0,MX,1601021304,68,22.89,-109.91,80.01,3.0
189,Omboué,86,GA,1601021306,71,-1.57,9.26,79.12,7.81
190,Fort Nelson,20,CA,1601021307,93,58.81,-122.7,37.4,1.92
191,Cheyenne,1,US,1601021109,35,41.14,-104.82,59.0,9.17
192,Saint-Augustin,0,CA,1601021310,70,51.23,-58.65,39.97,11.99
193,Kapuskasing,75,CA,1601021311,85,49.42,-82.43,33.8,3.36
194,Westport,1,US,1601021312,82,41.14,-73.36,60.8,4.14
195,Rawson,0,AR,1601021314,40,-43.3,-65.1,54.7,7.31
196,Xingyi,99,CN,1601021316,74,24.19,102.82,73.27,8.21
197,Rosarito,90,MX,1601021317,93,32.33,-117.03,68.0,2.42
198,Coquimbo,42,CL,1601021319,87,-29.95,-71.34,53.6,5.82
199,Burnie,97,AU,1601021320,77,-41.07,145.92,46.99,5.99
200,Biskamzha,100,RU,1601021321,85,53.45,89.53,39.34,7.14
201,Esil,53,KZ,1601021322,55,51.96,66.4,50.07,11.95
202,Pirgos,0,GR,1601021324,61,35.12,25.72,82.99,7.0
203,Jember,98,ID,1601021325,64,-8.17,113.7,84.67,6.06
204,Laguna,1,US,1601021326,63,38.42,-121.42,64.99,5.82
205,Bukachacha,100,RU,1601021328,70,52.98,116.92,52.43,4.61
206,Atbasar,7,KZ,1601021329,56,51.8,68.33,50.02,13.24
207,Williston,100,US,1601021104,50,48.15,-103.62,57.99,11.61
208,Lienz,90,AT,1601021331,93,46.83,12.77,53.6,3.38
209,Tasiilaq,100,GL,1601021333,98,65.61,-37.64,30.25,11.92
210,Two Rivers,90,US,1601021334,100,44.15,-87.57,62.01,3.36
211,Deputatsky,91,RU,1601021335,77,69.3,139.9,36.73,3.74
212,Torbay,20,CA,1601021337,87,47.67,-52.73,54.0,17.22
213,Mount Isa,0,AU,1601021338,8,-20.73,139.5,87.8,10.29
214,Kismayo,25,SO,1601021339,61,-0.36,42.55,81.97,15.52
215,Adrar,0,MR,1601021341,26,20.5,-10.07,90.05,12.1
216,Thunder Bay,90,CA,1601021178,100,48.4,-89.32,53.01,3.36
217,Kruisfontein,10,ZA,1601021343,61,-34.0,24.73,70.0,5.01
218,Hamilton,1,US,1601020651,100,39.18,-84.53,59.0,3.36
219,Russell,90,US,1601021346,94,32.35,-85.2,71.6,3.36
220,Lavrentiya,35,RU,1601021347,92,65.58,-171.0,32.49,11.83
221,Namwala,0,ZM,1601021348,19,-15.75,26.44,86.07,5.99
222,Shubarshi,100,KZ,1601021350,32,48.59,57.19,62.44,13.56
223,Kwang Binh,99,VN,1601021351,67,17.48,106.6,87.51,5.41
224,Rongcheng,100,CN,1601021352,91,30.63,117.85,75.99,5.48
225,Ilulissat,100,GL,1601021167,51,69.22,-51.1,35.6,25.28
226,Port-Cartier,5,CA,1601021355,65,50.03,-66.87,41.0,10.29
227,Bambous Virieux,20,MU,1601021356,57,-20.34,57.76,77.0,11.41
228,Moussoro,9,TD,1601021357,34,13.64,16.49,92.41,4.76
229,Buíque,15,BR,1601021359,100,-8.62,-37.16,58.33,6.93
230,Puerto Peñasco,0,MX,1601021072,82,31.32,-113.53,79.0,1.99
231,Tessalit,6,ML,1601021361,11,20.2,1.01,93.7,16.82
232,Ukiah,1,US,1601021362,59,39.15,-123.21,60.8,5.82
233,Gwanda,0,ZW,1601021363,17,-20.93,29.0,86.43,9.17
234,Madimba,40,TZ,1601021365,58,-10.4,40.33,82.4,6.93
235,Young,100,UY,1601021366,85,-32.68,-57.63,64.0,3.0
236,Papara,75,BR,1601021367,78,-3.98,-38.73,78.8,16.11
237,Kulykivka,86,UA,1601021368,46,51.37,31.65,68.4,9.04
238,Yashkino,75,RU,1601021370,81,55.87,85.43,48.2,6.71
239,Ambulu,78,ID,1601021371,68,-8.35,113.61,83.66,8.46
240,Laas,75,IT,1601021372,87,46.62,10.7,54.0,4.7
241,Beyneu,0,KZ,1601021374,26,45.32,55.2,75.72,15.99
242,Yellowknife,90,CA,1601021375,100,62.46,-114.35,48.2,6.93
243,Geraldton,75,AU,1601021376,53,-28.77,114.6,71.6,13.87
244,Zabaykal'sk,100,RU,1601021378,50,49.63,117.32,54.97,11.48
245,Pangnirtung,100,CA,1601021379,80,66.15,-65.71,33.4,7.14
246,Padang,100,ID,1601021232,71,-0.95,100.35,83.35,2.89
247,Zhigansk,0,RU,1601021381,49,66.77,123.37,50.18,3.47
248,Coahuayana Viejo,21,MX,1601021383,87,18.73,-103.68,77.54,2.24
249,Biak,75,ID,1601021384,73,-0.91,122.88,81.66,3.96
250,Adrian,1,US,1601021295,93,41.9,-84.04,53.6,4.63
251,Avarua,91,CK,1601021386,94,-21.21,-159.78,73.4,4.7
252,Chara,51,RU,1601021387,48,56.91,118.26,52.65,3.96
253,Sulangan,90,PH,1601021389,70,11.14,123.72,84.2,2.39
254,Batagay-Alyta,0,RU,1601021390,60,67.8,130.41,43.38,4.88
255,Bilma,49,NE,1601021391,14,18.69,12.92,91.02,12.75
256,Nanortalik,98,GL,1601021393,80,60.14,-45.24,40.21,11.65
257,Mumford,81,GH,1601021394,85,5.26,-0.76,77.14,3.0
258,Dunedin,89,NZ,1601021324,76,-45.87,170.5,48.99,3.09
259,Saint George,1,US,1601021396,22,37.1,-113.58,75.2,5.82
260,Riyadh,0,SA,1601021398,15,24.69,46.72,96.8,5.82
261,Makakilo City,1,US,1601021150,65,21.35,-158.09,80.6,8.05
262,Aksarka,68,RU,1601021400,68,66.56,67.8,46.81,12.33
263,Ngunguru,62,NZ,1601021402,85,-35.62,174.5,63.0,3.0
264,La Foa,75,NC,1601021403,65,-21.71,165.83,78.8,6.93
265,Praia da Vitória,75,PT,1601021405,68,38.73,-27.07,68.0,10.76
266,Straumen,75,NO,1601021406,87,63.87,11.3,48.0,29.97
267,Yerbogachën,2,RU,1601021407,45,61.28,108.01,54.1,11.68
268,Wainwright,0,CA,1601021408,60,52.84,-110.86,49.33,6.69
269,Bhind,10,IN,1601021410,25,26.56,78.79,100.02,10.38
270,Matara,100,LK,1601021411,78,5.95,80.54,81.68,7.76
271,Coffeyville,1,US,1601021413,87,37.04,-95.62,60.8,3.36
272,Wamba,100,NG,1601021351,87,8.93,8.6,75.25,3.0
273,Viedma,0,AR,1601021415,76,-40.81,-63.0,55.36,11.3
274,Acaraú,94,BR,1601021335,78,-2.89,-40.12,76.78,14.76
275,Maragheh,0,IR,1601021417,24,37.39,46.24,80.6,2.24
276,Hambantota,75,LK,1601021419,79,6.12,81.12,86.0,12.75
277,Orlik,59,RU,1601021420,63,52.52,99.83,41.34,24.16
278,Mahébourg,20,MU,1601021421,57,-20.41,57.7,77.0,11.41
279,Ende,57,ID,1601021423,60,-8.84,121.66,85.15,3.04
280,Manzhouli,100,CN,1601021424,50,49.6,117.43,55.8,9.84
281,Srednekolymsk,0,RU,1601021425,67,67.45,153.68,44.6,10.38
282,Haines Junction,99,CA,1601021427,79,60.75,-137.51,42.48,0.16
283,Avera,90,US,1601021428,97,33.19,-82.53,71.6,5.82
284,San Nicola,40,IT,1601021429,69,40.61,8.99,75.2,14.99
285,Bonavista,0,CA,1601021430,78,48.65,-53.11,52.11,18.45
286,Inhambane,0,MZ,1601021432,61,-23.86,35.38,77.0,13.87
287,Mahibadhoo,73,MV,1601021433,75,3.78,72.97,82.47,7.87
288,Morros,100,BR,1601021434,40,-9.45,-46.3,77.49,7.25
289,Lipari,5,IT,1601021436,65,38.47,14.95,81.0,4.7
290,Ormara,30,PK,1601021437,34,25.21,64.64,88.02,14.23
291,Pathein,99,MM,1601021438,78,16.78,94.73,84.67,11.1
292,Kūstī,80,SD,1601021440,51,13.16,32.66,86.43,8.46
293,Tocopilla,0,CL,1601021441,51,-22.09,-70.2,59.7,2.48
294,Måløy,40,NO,1601021442,70,61.94,5.11,48.2,9.17
295,Narsaq,100,GL,1601021443,48,60.92,-46.05,42.8,26.4
296,Goderich,3,CA,1601021445,70,43.75,-81.72,64.0,6.22
297,Gualeguaychú,100,AR,1601021215,85,-33.01,-58.52,64.0,3.0
298,Andros Town,100,BS,1601021448,79,24.7,-77.77,82.83,16.26
299,Liwale,93,TZ,1601021449,35,-9.77,37.93,86.23,5.95
300,Pevek,100,RU,1601021450,92,69.7,170.31,33.17,8.52
301,Ust-Tsilma,94,RU,1601021451,89,65.44,52.15,53.58,3.56
302,Dombarovskiy,0,RU,1601021453,43,50.76,59.54,55.13,8.14
303,Vanimo,84,PG,1601021454,81,-2.67,141.3,81.73,6.38
304,Kenai,90,US,1601021455,93,60.55,-151.26,48.99,5.82
305,Carballo,40,ES,1601021457,82,43.21,-8.69,57.2,5.82
306,Chumikan,98,RU,1601021458,79,54.72,135.31,52.11,22.06
307,Qaqortoq,100,GL,1601021459,48,60.72,-46.03,42.8,26.4
308,Chicama,97,PE,1601021461,79,-7.84,-79.15,62.89,4.05
309,Odesa,75,UA,1601021286,73,46.48,30.73,71.6,6.71
310,Cap Malheureux,0,MU,1601021463,54,-19.98,57.61,77.0,10.0
311,Pitimbu,40,BR,1601021465,94,-7.47,-34.81,71.6,5.82
312,Sabha,0,LY,1601021466,22,27.04,14.43,88.75,4.81
313,Katobu,59,ID,1601021467,56,-4.94,122.53,86.32,2.89
314,Ankazoabo,0,MG,1601021468,25,-22.28,44.52,87.37,7.43
315,Tuatapere,92,NZ,1601021470,75,-46.13,167.68,48.99,1.99
316,Nago,1,JP,1601021189,69,26.59,127.98,82.4,10.29
317,Sayyan,0,YE,1601021472,20,15.17,44.32,72.01,14.61
318,Druzhba,85,UA,1601021473,47,52.04,33.95,67.91,12.26
319,Piritiba,100,BR,1601021475,89,-11.73,-40.56,64.85,6.02
320,Dickinson,90,US,1601021476,83,29.46,-95.05,72.0,5.44
321,Port Shepstone,54,ZA,1601021477,31,-30.74,30.45,85.28,9.95
322,Jaciara,0,BR,1601021478,47,-15.97,-54.97,75.27,1.12
323,Bowen,40,AU,1601021480,57,-20.02,148.23,78.8,11.41
324,Margate,96,GB,1601021481,90,51.38,1.39,51.01,5.01
325,Terrytown,90,US,1601021482,94,29.91,-90.03,73.4,4.81
326,Bubaque,100,GW,1601021484,83,11.28,-15.83,79.34,14.54
327,Tuscaloosa,90,US,1601021440,100,33.21,-87.57,69.8,5.82
328,Puerto Colombia,20,CO,1601021486,94,10.99,-74.95,78.8,3.36
329,Aksu,0,CN,1601021488,16,41.12,80.26,79.95,4.43
330,Taktaharkány,40,HU,1601021489,88,48.08,21.13,62.6,3.36
331,Port Macquarie,0,AU,1601021490,39,-31.43,152.92,69.01,1.01
332,Ust-Nera,0,RU,1601021491,65,64.57,143.2,41.31,3.62
333,Lüderitz,100,NA,1601021493,78,-26.65,15.16,59.34,4.38
334,Ishigaki,75,JP,1601021494,74,24.34,124.16,82.4,6.93
335,Tara,99,RU,1601021495,72,56.89,74.37,48.27,12.93
336,Birin,100,NP,1601021497,100,26.89,88.07,64.31,1.45
337,Lorengau,1,PG,1601021498,67,-2.02,147.27,83.48,6.69
338,Nortelândia,4,BR,1601021499,50,-14.45,-56.8,77.9,2.77
339,Muros,24,ES,1601021500,99,42.78,-9.06,54.0,1.99
340,Kochki,50,RU,1601021502,64,54.34,80.48,52.3,12.33
341,Jaraguá,0,BR,1601021298,68,-15.76,-49.33,66.2,6.93
342,Hobyo,2,SO,1601021504,56,5.35,48.53,83.71,23.42
343,Cockburn Town,0,TC,1601021506,81,21.46,-71.14,82.76,14.34
344,Carbonia,40,IT,1601021507,78,39.17,8.52,81.0,16.11
345,Baruun-Urt,100,MN,1601021508,27,46.68,113.28,71.28,13.69
346,Waddān,0,LY,1601021510,18,29.16,16.14,93.24,7.29
347,Gushikawa,1,JP,1601021363,69,26.35,127.87,82.4,10.29
348,Hayden,1,US,1601021512,81,47.77,-116.79,51.01,5.82
349,Agadez,50,NE,1601021513,16,19.75,10.25,86.29,14.67
350,Robertsport,100,LR,1601021515,94,6.75,-11.37,74.73,4.27
351,Tres Picos,79,MX,1601021516,77,15.87,-93.53,76.68,3.06
352,Beira,40,MZ,1601021517,61,-19.84,34.84,77.0,5.82
353,Guiglo,100,CI,1601021518,96,6.55,-7.5,73.45,2.01
354,Isangel,2,VU,1601021520,85,-19.55,169.27,74.57,13.13
355,Raja,53,SS,1601021521,74,8.46,25.68,80.8,4.41
356,Muncar,96,ID,1601021523,64,-8.43,114.33,84.61,7.92
357,Sisimiut,100,GL,1601021524,79,66.94,-53.67,33.87,3.42
358,Bhakkar,0,PK,1601021525,8,31.63,71.07,104.07,4.18
359,Saldanha,100,ZA,1601021527,63,-33.01,17.94,62.6,16.11
360,Mangai,99,CD,1601021528,89,-4.05,19.53,72.86,3.65
361,Yanam,75,IN,1601021529,79,16.73,82.22,86.0,16.11
362,Katsuura,75,JP,1601021530,94,35.13,140.3,71.01,17.22
363,Te Anau,22,NZ,1601021390,84,-45.42,167.72,40.39,4.76
364,Moroni,80,KM,1601021411,67,-11.7,43.26,77.2,5.01
365,Dudinka,40,RU,1601021534,100,69.41,86.18,41.0,8.95
366,Ainaži,30,LV,1601021535,77,57.86,24.36,64.4,3.36
367,Tual,100,ID,1601021536,81,-5.67,132.75,81.16,14.56
368,Redmond,96,US,1601021538,82,47.67,-122.12,60.01,5.14
369,Kaoma,0,ZM,1601021539,15,-14.78,24.8,86.27,9.78
370,Praia,20,CV,1601021541,88,14.92,-23.51,77.0,6.93
371,Mount Gambier,75,AU,1601021542,61,-37.83,140.77,48.2,18.34
372,Wadgassen,100,DE,1601021543,93,49.27,6.78,51.01,13.98
373,Kavaratti,40,IN,1601021545,70,10.57,72.64,86.0,6.93
374,Mandalgovi,100,MN,1601021546,21,45.76,106.27,72.07,19.73
375,Narimanov,98,RU,1601021548,31,46.69,47.85,73.4,15.66
376,Ambilobe,100,MG,1601021549,24,-13.2,49.05,94.33,2.15
377,Lincoln,1,US,1601021550,88,40.8,-96.67,69.01,6.64
378,Belmonte,75,BR,1601021551,88,-15.86,-38.88,68.0,3.36
379,Kangaatsiaq,100,GL,1601021553,86,68.31,-53.46,32.7,20.58
380,Koumac,37,NC,1601021554,75,-20.57,164.28,73.2,6.93
381,Pringsewu,100,ID,1601021556,67,-5.36,104.97,85.68,3.11
382,Cedar City,1,US,1601021511,23,37.68,-113.06,64.4,5.82
383,Bilibino,100,RU,1601021558,93,68.05,166.44,26.96,3.62
384,Dingle,100,PH,1601021559,84,11.0,122.67,82.96,10.38
385,Siocon,84,PH,1601021561,69,7.71,122.14,84.85,6.06
386,Aklavik,90,CA,1601021562,100,68.22,-135.01,37.4,4.7
387,Shimoda,75,JP,1601021563,78,34.67,138.95,73.4,19.46
388,Mokolo,95,CM,1601021564,57,10.74,13.8,80.26,3.85
389,Nabire,94,ID,1601021566,73,-3.37,135.48,82.99,2.15
390,Dedovichi,90,RU,1601021567,67,57.55,29.95,60.03,9.31
391,Jumla,0,NP,1601021568,95,29.27,82.18,73.0,7.63
392,Ilām,100,NP,1601021570,97,26.92,87.92,67.01,0.81
393,Castro,5,BR,1601021463,91,-24.79,-50.01,52.65,3.6
394,Damascus,0,SY,1601021572,64,33.51,36.29,73.4,4.7
395,Ariquemes,4,BR,1601021573,67,-9.91,-63.04,76.84,0.4
396,Torres,100,BR,1601021575,74,-29.34,-49.73,61.32,3.71
397,Tatarskaya Kargala,0,RU,1601021576,33,51.95,55.17,62.6,6.71
398,Cherskiy,100,RU,1601021577,95,68.75,161.3,35.51,10.25
399,Karabük,75,TR,1601021579,93,41.2,32.63,60.8,2.24
400,Henties Bay,97,NA,1601021580,83,-22.12,14.28,61.0,1.01
401,Turaif,0,SA,1601021581,47,31.67,38.66,80.6,9.17
402,Hanzhong,100,CN,1601021583,72,33.07,107.03,67.73,1.41
403,Comrie,24,GB,1601021584,76,56.38,-3.99,48.99,1.01
404,Olafsvik,0,IS,1601021585,74,64.89,-23.71,37.04,9.15
405,Talnakh,40,RU,1601021587,100,69.49,88.4,41.0,8.95
406,Rizhao,100,CN,1601021588,67,35.43,119.46,72.9,5.19
407,Nālūt,0,LY,1601021589,14,30.33,10.85,93.24,10.31
408,Playa Vicente,100,MX,1601021590,95,17.83,-95.82,73.94,4.16
409,Sibolga,100,ID,1601021592,73,1.74,98.78,81.97,2.1
410,Sinnamary,79,GF,1601021593,86,5.38,-52.95,78.76,7.74
411,Thaton,100,MM,1601021594,79,16.92,97.37,83.41,11.03
412,Majene,99,ID,1601021596,64,-3.54,118.97,85.06,7.74
413,Tiznit Province,7,MA,1601021597,34,29.58,-9.5,79.34,2.28
414,Isla Vista,0,US,1601021598,63,34.41,-119.86,70.0,3.49
415,Half Moon Bay,75,US,1601021599,93,37.46,-122.43,62.6,5.82
416,Bayan,21,CN,1601021394,45,46.08,127.4,73.0,5.21
417,Guliston,0,UZ,1601021602,16,40.49,68.78,80.4,5.82
418,Bonthe,97,SL,1601021603,88,7.53,-12.51,76.98,4.72
419,Portland,88,US,1601021524,81,45.52,-122.68,61.0,1.99
420,Abhā,0,SA,1601021606,10,18.22,42.51,78.8,11.41
421,Gazojak,0,TM,1601021607,18,41.19,61.4,78.35,10.0
422,Yaviza,100,PA,1601021609,94,8.15,-77.69,74.37,1.32
423,Fairbanks,75,US,1601021408,100,64.84,-147.72,37.4,1.9
424,Bengkulu,4,ID,1601021611,78,-3.8,102.27,83.53,11.36
425,Erciş,75,TR,1601021469,46,39.03,43.36,69.8,9.17
426,Balkhash,20,KZ,1601021614,35,46.84,74.98,55.4,11.18
427,Tanete,93,ID,1601021615,36,-3.94,119.78,91.63,9.8
428,Indiaroba,4,BR,1601021616,91,-11.52,-37.51,68.99,3.15
429,Codrington,29,AU,1601021618,77,-38.27,141.97,45.95,15.21
430,Oistins,40,BB,1601021619,83,13.07,-59.53,80.6,5.82
431,Guarda,91,PT,1601021620,67,40.54,-7.27,55.0,4.0
432,Vestmannaeyjar,0,IS,1601021621,65,63.44,-20.27,41.0,17.22
433,Quelimane,100,MZ,1601021623,40,-17.88,36.89,86.13,3.91
434,Algiers,100,DZ,1601021624,50,36.75,3.04,77.0,9.62
435,Bar Harbor,90,US,1601021604,76,44.39,-68.2,57.0,3.36
436,Morant Bay,20,JM,1601021626,74,17.88,-76.41,84.2,13.87
437,Khovd,0,MN,1601021628,31,48.01,91.64,52.2,8.12
438,Mankono,92,CI,1601021629,94,8.06,-6.19,73.56,4.83
439,Kondoa,3,TZ,1601021630,37,-4.9,35.78,77.09,7.43
440,Beitbridge,0,ZW,1601021632,25,-22.22,30.0,86.32,7.85
441,Nizwá,1,OM,1601021555,10,22.93,57.53,99.16,6.22
442,Arcata,90,US,1601021634,93,40.87,-124.08,57.99,3.36
443,Mindelo,20,CV,1601021636,78,16.89,-24.98,80.6,10.29
444,Mīzan Teferī,52,ET,1601021637,83,6.98,35.58,70.23,3.24
445,Golfito,100,CR,1601021638,91,8.64,-83.17,73.63,3.33
446,Miracema do Tocantins,98,BR,1601021639,59,-9.56,-48.4,79.2,1.23
447,Longyearbyen,75,SJ,1601021641,91,78.22,15.64,32.0,12.75
448,Arlit,0,NE,1601021642,11,18.74,7.39,94.26,8.46
449,Noumea,75,NC,1601021643,65,-22.28,166.46,78.8,6.93
450,Rumford,38,US,1601021645,94,44.55,-70.55,53.01,1.99
451,Hereford,0,GB,1601021646,88,52.06,-2.71,50.0,14.9
452,Saint-Joseph,6,RE,1601021647,61,-21.37,55.62,78.8,23.04
453,Alghero,40,IT,1601021649,83,40.56,8.32,75.2,10.29
454,Kozhevnikovo,100,RU,1601021650,85,56.26,83.97,48.0,5.26
455,Sawākin,11,SD,1601021651,31,19.11,37.33,97.79,7.61
456,Aswān,0,EG,1601021652,18,24.09,32.91,96.87,15.43
457,Shanhecun,87,CN,1601021654,76,44.7,127.2,65.79,5.01
458,La Baule-Escoublac,0,FR,1601021655,71,47.29,-2.36,55.4,16.11
459,Kem',69,RU,1601021656,71,64.96,34.58,59.22,14.16
460,Susanville,1,US,1601021657,66,40.42,-120.65,53.6,3.31
461,Belturbet,36,IE,1601021659,82,54.1,-7.45,45.0,3.0
462,Tūkrah,0,LY,1601021660,46,32.53,20.58,83.14,4.74
463,Kiryat Gat,1,IL,1601021642,68,31.61,34.76,82.99,3.0
464,Hauge i Dalane,100,NO,1601021662,87,58.34,6.28,50.0,6.4
465,Jaisalmer,27,IN,1601021647,24,26.91,70.92,99.59,17.0
466,Xining,26,CN,1601021665,41,36.62,101.77,64.27,2.57
467,Singkang,40,MY,1601021666,74,2.1,102.8,86.0,8.05
468,Basco,13,PH,1601021667,81,20.45,121.97,82.76,15.99
469,Emba,24,KZ,1601021669,34,48.83,58.14,60.55,12.5
470,Ixtapa,87,MX,1601021647,90,20.7,-105.2,82.0,1.01
471,Kepanjen,78,ID,1601021671,51,-8.13,112.57,85.44,8.93
472,Potamiá,40,GR,1601021672,64,40.72,24.73,75.2,3.36
473,Qinzhou,100,CN,1601021674,71,21.95,108.62,86.18,7.61
474,Bafia,100,CM,1601021675,88,4.75,11.23,73.51,2.01
475,Port Blair,97,IN,1601021676,75,11.67,92.75,83.88,15.73
476,Inírida,58,CO,1601021677,98,3.87,-67.92,71.76,1.61
477,Virginia Beach,90,US,1601020863,88,36.85,-75.98,64.99,3.74
478,Antofagasta,90,CL,1601021680,72,-23.65,-70.4,59.0,3.36
479,Yugorsk,28,RU,1601021573,60,61.31,63.33,50.31,7.58
480,Awjilah,0,LY,1601021682,22,29.11,21.29,91.15,7.2
481,Ust-Kuyga,70,RU,1601021684,64,70.02,135.6,42.96,5.7
482,San Javier,6,ES,1601021685,44,37.81,-0.84,78.8,6.93
483,Ghanzi,66,BW,1601021687,12,-21.57,21.78,91.8,11.14
484,Aykhal,0,RU,1601021688,40,66.0,111.5,51.8,8.95
485,Ambikāpur,90,IN,1601021689,63,23.12,83.2,86.05,13.69
486,Luganville,95,VU,1601021690,84,-15.53,167.17,79.09,7.87
487,Aljezur,100,PT,1601021692,88,37.32,-8.8,62.01,1.01
488,Maţāy,0,EG,1601021693,36,28.42,30.78,87.84,14.0
489,Kirovskiy,99,RU,1601021694,82,45.09,133.51,60.62,4.41
490,Sokol,61,RU,1601021526,72,59.46,40.12,62.67,6.76
491,Visby,64,SE,1601021697,87,57.64,18.3,61.0,5.82
492,Berlevåg,75,NO,1601021698,93,70.86,29.09,44.6,16.11
493,Tommot,51,RU,1601021526,60,58.96,126.29,56.14,6.08
494,Damara,20,CF,1601021701,88,4.96,18.7,75.2,3.36
495,Jaguariaíva,6,BR,1601021703,99,-24.25,-49.71,59.0,4.21
496,‘Āhuimanu,75,US,1601021705,69,21.44,-157.84,80.6,13.87
497,Amboasary,40,MG,1601021706,57,-25.03,46.38,78.8,18.34
498,Qiongshan,20,CN,1601021708,79,20.01,110.35,86.0,6.71
499,Tevaitoa,1,PF,1601021709,70,-16.78,-151.5,79.77,11.97
500,Calvinia,42,ZA,1601021710,59,-31.47,19.78,51.42,14.56
501,Harrisonville,1,US,1601021467,87,38.65,-94.35,60.01,3.36
502,Samaná,94,DO,1601021713,89,19.21,-69.34,76.89,1.25
503,Coos Bay,1,US,1601021714,100,43.37,-124.22,55.4,4.7
504,Verkhnevilyuysk,63,RU,1601021716,47,63.45,120.32,54.25,8.77
505,Worland,1,US,1601021717,44,44.02,-107.96,61.0,3.36
506,Mossamedes,94,AO,1601021719,77,-15.2,12.15,67.08,4.74
507,Kodinsk,90,RU,1601021693,72,58.69,99.18,55.04,3.71
508,Riberalta,95,BO,1601021721,65,-10.98,-66.1,77.18,1.79
509,North Bend,1,US,1601021465,100,43.41,-124.22,55.4,4.7
510,Maués,57,BR,1601021724,86,-3.38,-57.72,75.36,1.95
511,La Ronge,90,CA,1601021725,93,55.1,-105.28,51.8,12.75
512,Nur,26,PL,1601021726,64,52.67,22.32,67.86,13.42
513,Charters Towers,75,AU,1601021728,44,-20.1,146.27,80.74,12.39
514,Xiaoshi,0,CN,1601021729,47,41.3,124.12,75.2,4.47
515,Bucak,20,TR,1601021731,68,37.46,30.59,86.0,2.24
516,Tecolutla,98,MX,1601021732,76,20.48,-97.02,77.32,3.94
517,Bandarbeyla,0,SO,1601021733,48,9.49,50.81,87.98,22.17
518,Kahului,40,US,1601021735,69,20.89,-156.47,78.8,13.87
519,California City,1,US,1601021736,30,35.13,-117.99,71.6,12.75
520,Pochutla,100,MX,1601021737,90,15.74,-96.47,77.0,3.24
521,Hialeah Gardens,75,US,1601021739,88,25.87,-80.32,81.0,8.39
522,Duncan,1,US,1601021702,100,34.5,-97.96,64.0,4.7
523,Imbituba,87,BR,1601021701,93,-28.24,-48.67,64.4,5.82
524,Khovu-Aksy,76,RU,1601021742,54,51.13,93.6,45.93,9.06
525,St. Marys,4,US,1601021697,83,30.73,-81.55,79.0,6.93
526,Samarai,99,PG,1601021745,83,-10.62,150.67,78.66,11.83
527,Ponta Delgada,75,PT,1601021746,77,37.73,-25.67,66.2,8.05
528,Santa Rosalía,0,MX,1601021747,26,27.32,-112.28,85.39,10.27
529,San Vicente,7,AR,1601021748,65,-26.62,-54.13,60.15,2.82
530,Markova,56,UA,1601021750,77,48.68,24.41,66.0,2.24
531,Amga,0,RU,1601021529,43,60.9,131.96,56.08,9.4
532,Beringovskiy,100,RU,1601021530,81,63.05,179.32,39.49,23.71
533,Nogliki,99,RU,1601021753,88,51.83,143.17,52.41,5.95
534,Bariloche,0,AR,1601021755,50,-41.15,-71.31,33.8,5.82
535,Taltal,87,CL,1601021756,77,-25.4,-70.48,55.26,1.92
536,Paita,91,PE,1601021719,85,-5.09,-81.11,61.83,7.87
537,Richards Bay,26,ZA,1601021758,25,-28.78,32.04,88.83,13.67
538,Praia,20,CV,1601021760,88,14.92,-23.51,77.0,6.93
539,Nome,90,US,1601021761,69,64.5,-165.41,34.0,9.17
540,Ahipara,14,NZ,1601021762,90,-35.17,173.17,57.72,3.69
541,Zlatograd,11,BG,1601021764,55,41.38,25.1,79.0,1.99
542,Moa,28,CU,1601021765,81,20.66,-74.94,78.21,4.76
543,Pedernales,34,DO,1601021767,64,18.04,-71.74,81.37,3.42
544,Sovetskiy,23,RU,1601021768,59,61.36,63.58,50.77,7.67
545,Llanes,100,ES,1601021769,75,43.42,-4.75,57.0,23.73
546,Martapura,40,ID,1601021677,59,-3.42,114.85,91.4,5.82
547,Sikasso,82,ML,1601021772,84,10.92,-7.0,76.87,4.45
548,Roebourne,0,AU,1601021773,24,-20.78,117.13,93.07,21.27
549,Panguna,100,PG,1601021774,100,-6.32,155.48,71.04,0.81
550,İzmit,75,TR,1601021776,68,40.77,29.92,71.6,2.24
551,Derzhavīnsk,27,KZ,1601021777,51,51.1,66.32,50.67,12.53
552,Manta,40,EC,1601021778,88,-0.95,-80.73,71.6,8.05
553,Samfya,46,ZM,1601021779,27,-11.36,29.56,80.6,7.36
554,Madīnat Sittah Uktūbar,40,EG,1601021781,65,29.82,31.05,82.4,9.17
555,Boa Vista,13,BR,1601021782,74,2.82,-60.67,78.8,8.05
556,Kutum,100,SD,1601021783,27,14.2,24.67,83.93,18.39
557,Kindu,90,CD,1601021784,71,-2.95,25.95,78.91,5.95
558,Auki,64,SB,1601021786,81,-8.77,160.7,80.04,4.03
559,Robāţ Karīm,0,IR,1601021787,13,35.48,51.08,84.2,9.17
560,Paamiut,100,GL,1601021661,74,61.99,-49.67,43.45,42.26
561,Kokkola,46,FI,1601021789,76,63.84,23.13,57.2,14.99
562,Broome,1,US,1601021791,87,42.25,-75.83,57.2,2.42
563,Nishihara,75,JP,1601021792,74,26.18,127.76,82.4,10.29
564,Chickasha,1,US,1601021790,93,35.05,-97.94,64.0,4.7
